City_ID,City,Lat,Lng,Max Temp,Humidity,Cloudiness,Wind Speed,Country,Date
0,west island,-12.1568,96.8225,26.99,78,100,4.63,CC,1710434429
1,bethel,41.3712,-73.414,20.91,40,0,2.06,US,1710434332
2,vorgashor,67.5833,63.95,-24.83,100,74,1.66,RU,1710434429
3,waitangi,-43.9535,-176.5597,12.31,67,36,2.32,NZ,1710434429
4,priozersk,61.0393,30.1291,5.05,83,100,8.67,RU,1710434429
5,sheringham,52.9408,1.2093,15.67,77,96,8.65,GB,1710434425
6,pisz,53.6274,21.8125,7.88,85,55,2.54,PL,1710434429
7,kirensk,57.7853,108.1119,-8.91,97,100,1.34,RU,1710434430
8,port-aux-francais,-49.35,70.2167,7.14,96,100,10.19,TF,1710434430
9,yellowknife,62.456,-114.3525,-8.17,87,75,1.54,CA,1710434161
10,albany,42.6001,-73.9662,17.19,50,74,2.24,US,1710434306
11,saipan,15.1355,145.701,26.39,73,40,3.6,MP,1710434430
12,kone,-21.0595,164.8658,25.52,91,91,2.12,NC,1710434430
13,college,64.8569,-147.8028,-16.01,74,100,2.57,US,1710434334
14,corinth,37.9407,22.9573,16.05,74,37,1.92,GR,1710434430
15,urengoy,65.9667,78.3667,-23.42,99,69,2.99,RU,1710434430
16,nouadhibou,20.931,-17.0347,23.99,64,0,8.23,MR,1710434430
17,atafu village,-8.5421,-172.5159,29.17,74,8,4.97,TK,1710434399
18,newman,37.3138,-121.0208,12.3,47,0,7.6,US,1710434430
19,blackmans bay,-43.0167,147.3167,9.07,82,37,0.45,AU,1710434430
20,olonkinbyen,70.9221,-8.7187,-6.95,74,100,9.54,SJ,1710434430
21,ambalavao,-21.8333,46.9333,20.02,94,7,1.67,MG,1710434430
22,guerrero negro,27.9769,-114.0611,16.66,60,76,5.81,MX,1710434380
23,georgetown,5.4112,100.3354,29.97,71,20,2.06,MY,1710434354
24,rio preto da eva,-2.6994,-59.6997,33.73,53,91,2.41,BR,1710434431
25,nuuk,64.1835,-51.7216,-3.66,80,20,1.54,GL,1710434284
26,nantucket,41.2835,-70.0995,10.08,76,0,5.66,US,1710434431
27,ribeira grande,38.5167,-28.7,18.22,88,40,9.39,PT,1710434431
28,kerimaki,61.9167,29.2833,2.97,93,100,8.23,FI,1710434431
29,zinjibar,13.1287,45.3807,26.14,81,15,6.11,YE,1710434431
30,tyukhtet,56.5389,89.3011,-7.69,91,99,5.14,RU,1710434431
31,punta arenas,-53.15,-70.9167,9.06,46,75,9.26,CL,1710434431
32,iqaluit,63.7506,-68.5145,-15.15,72,100,0.0,CA,1710434431
33,isangel,-19.55,169.2667,26.48,89,98,2.79,VU,1710434431
34,invercargill,-46.4,168.35,8.34,81,100,3.13,NZ,1710434431
35,grytviken,-54.2811,-36.5092,4.99,94,66,2.53,GS,1710434431
36,bredasdorp,-34.5322,20.0403,19.39,65,76,5.13,ZA,1710434431
37,talagang,32.9297,72.4158,15.96,53,0,1.91,PK,1710434431
38,margaret river,-33.95,115.0667,18.35,83,2,4.1,AU,1710434299
39,roma,43.2128,-75.4557,15.05,49,62,1.34,US,1710434428
40,paramaribo,5.8667,-55.1667,31.95,58,40,6.17,SR,1710434432
41,st. john's,47.5649,-52.7093,2.38,90,100,8.49,CA,1710434412
42,nampula,-15.1165,39.2666,24.04,83,24,2.98,MZ,1710434432
43,arona,28.0996,-16.681,19.35,70,75,4.63,ES,1710434191
44,thompson,55.7435,-97.8558,-8.91,79,100,0.0,CA,1710434138
45,hawaiian paradise park,19.5933,-154.9731,20.02,93,0,2.57,US,1710434432
46,puerto natales,-51.7236,-72.4875,8.25,87,100,6.17,CL,1710434432
47,jeddah,21.5169,39.2192,31.92,48,0,3.09,SA,1710434432
48,akrehamn,59.2667,5.1833,8.33,87,75,4.63,NO,1710434432
49,wanning,18.8003,110.3967,22.73,89,75,2.11,CN,1710434432
50,kapa'a,22.0752,-159.319,21.99,84,0,6.17,US,1710434432
51,barcelos,41.5388,-8.6151,16.08,95,99,3.58,PT,1710434134
52,kristinestad,62.2743,21.376,3.94,92,99,7.17,FI,1710434432
53,anadyr,64.75,177.4833,-15.72,85,100,4.0,RU,1710434433
54,dunedin,-45.8742,170.5036,8.78,91,100,2.68,NZ,1710434433
55,awjilah,29.1081,21.2869,19.42,31,17,3.1,LY,1710434433
56,inarajan village,13.2736,144.7484,26.54,83,100,7.78,GU,1710434433
57,jamestown,42.097,-79.2353,17.79,41,0,3.09,US,1710434244
58,pyin oo lwin,22.0333,96.4667,19.47,34,1,0.42,MM,1710434282
59,vadso,70.0744,29.7487,-2.91,93,100,2.57,NO,1710434433
60,broken hill,-31.95,141.4333,19.82,68,49,7.06,AU,1710434322
61,edinburgh of the seven seas,-37.0676,-12.3116,16.09,73,24,6.74,SH,1710434433
62,ushuaia,-54.8,-68.3,7.81,66,40,2.06,AR,1710434266
63,tiksi,71.6872,128.8694,-29.13,97,74,2.84,RU,1710434433
64,remire-montjoly,4.9167,-52.2667,32.02,62,75,6.17,GF,1710434433
65,badger,64.8,-147.5333,-16.05,82,100,2.57,US,1710434433
66,fort bragg,35.139,-79.006,25.51,30,0,2.57,US,1710434175
67,saudarkrokur,65.7461,-19.6394,-2.62,77,87,1.67,IS,1710434433
68,port lincoln,-34.7333,135.8667,17.43,80,39,8.9,AU,1710434179
69,mapimi,25.8167,-103.85,21.84,16,100,2.08,MX,1710434434
70,impfondo,1.6381,18.0667,29.36,58,100,1.2,CG,1710434434
71,avarua,-21.2078,-159.775,27.03,83,75,3.09,CK,1710434434
72,adamstown,-25.066,-130.1015,25.37,81,100,4.91,PN,1710434434
73,yauya,-8.9833,-77.3,18.33,38,82,1.65,PE,1710434434
74,port alfred,-33.5906,26.891,20.66,85,22,3.83,ZA,1710434434
75,kostomuksha,64.571,30.5767,1.69,98,100,8.05,RU,1710434434
76,kodiak,57.79,-152.4072,-3.27,74,100,4.63,US,1710434172
77,hamilton,39.1834,-84.5333,23.14,63,0,8.75,US,1710434434
78,wailua homesteads,22.0669,-159.378,21.24,84,0,6.17,US,1710434434
79,reggane,26.7158,0.1714,30.07,10,0,4.28,DZ,1710434434
80,klyuchi,52.2667,79.1667,-11.95,95,90,3.92,RU,1710434434
81,kill devil hills,36.0307,-75.676,24.0,28,0,1.54,US,1710434283
82,hermanus,-34.4187,19.2345,22.11,68,69,6.17,ZA,1710434434
83,freetown,8.484,-13.2299,29.84,54,63,6.17,SL,1710434435
84,dazhou,31.2159,107.5009,16.16,72,100,0.91,CN,1710434435
85,nizhniy odes,63.6445,54.856,-13.18,97,85,2.95,RU,1710434435
86,kapoeta,4.7717,33.5903,34.52,26,53,6.43,SS,1710434435
87,togur,58.3631,82.8265,-9.36,90,100,4.02,RU,1710434435
88,pigeon forge,35.7884,-83.5543,23.81,49,0,3.09,US,1710434435
89,novozybkov,52.5396,31.9275,4.21,71,14,3.11,RU,1710434435
90,schleusingen,50.5167,10.75,13.22,85,96,1.88,DE,1710434435
91,valparaiso,-33.0393,-71.6273,29.52,42,0,5.14,CL,1710434287
92,tazovsky,67.4667,78.7,-16.53,95,100,4.74,RU,1710434435
93,sao gabriel da cachoeira,-0.1303,-67.0892,30.89,74,75,2.06,BR,1710434435
94,broome,42.2506,-75.833,16.46,48,0,1.54,US,1710434435
95,florida,28.7505,-82.5001,27.22,54,0,0.0,US,1710434151
96,cole harbour,44.6724,-63.4751,9.4,68,20,1.54,CA,1710434435
97,iskateley,67.6803,53.1512,-14.43,96,69,3.13,RU,1710434435
98,tsiombe,-25.3,45.4833,24.02,85,88,2.47,MG,1710434436
99,keflavik,64.0049,-22.5624,2.95,60,75,7.2,IS,1710434436
100,neryungri,56.6709,124.6491,-10.23,95,100,3.23,RU,1710434436
101,tateyama,34.9833,139.8667,10.05,66,5,5.91,JP,1710434436
102,tofol,5.3248,163.0078,28.08,78,99,9.0,FM,1710434436
103,dudinka,69.4058,86.1778,-16.88,96,99,5.95,RU,1710434436
104,asau,46.4333,26.4,2.51,92,100,1.24,RO,1710434436
105,altar,30.7,-111.8167,18.16,37,18,1.94,MX,1710434436
106,ilulissat,69.2167,-51.1,-10.99,85,75,0.0,GL,1710434436
107,zemio,5.0314,25.1361,33.42,25,73,1.5,CF,1710434436
108,kapchorwa,1.3965,34.4509,23.05,39,98,4.7,UG,1710434437
109,tura,25.5198,90.2201,21.83,25,0,1.08,IN,1710434437
110,moroto,2.5345,34.6666,27.33,34,31,8.57,UG,1710434437
111,talnakh,69.4865,88.3972,-17.11,96,99,3.85,RU,1710434252
112,ulsteinvik,62.3432,5.8487,7.73,85,70,9.39,NO,1710434437
113,alice springs,-23.7,133.8833,22.75,40,5,2.57,AU,1710434189
114,mossel bay,-34.1831,22.146,19.96,81,66,4.1,ZA,1710434437
115,tual,-5.6667,132.75,28.58,80,100,11.27,ID,1710434437
116,caorle,45.5966,12.8758,15.74,81,100,1.87,IT,1710434437
117,nallihan,40.1859,31.3518,10.37,62,41,1.27,TR,1710434437
118,okhotsk,59.3833,143.3,-16.82,73,3,8.93,RU,1710434437
119,grabouw,-34.1515,19.0151,19.22,68,60,2.17,ZA,1710434437
120,carnarvon,-24.8667,113.6333,28.02,67,13,6.67,AU,1710434437
121,singkil,-7.9855,111.4161,24.4,97,100,0.55,ID,1710434438
122,tolanaro,-25.0319,46.9987,23.04,94,75,10.8,MG,1710434438
123,narasannapeta,18.4167,84.05,26.42,78,19,3.53,IN,1710434438
124,enewetak,11.3474,162.3373,26.22,79,100,8.83,MH,1710434438
125,praia da vitoria,38.7333,-27.0667,21.14,60,20,9.28,PT,1710434438
126,mafinga,-7.25,35.0667,22.38,81,67,1.75,TZ,1710434438
127,malmberget,67.1753,20.6549,-7.69,93,83,0.0,SE,1710434438
128,sijunjung,-0.6876,100.9537,23.28,93,97,0.75,ID,1710434438
129,astorga,-23.2325,-51.6656,34.13,28,9,2.05,BR,1710434438
130,dingcheng,32.1272,115.0394,8.87,92,2,3.53,CN,1710434438
131,union city,37.5958,-122.0192,16.03,37,0,8.75,US,1710434249
132,puerto baquerizo moreno,-0.9,-89.6,26.55,94,100,1.54,EC,1710434439
133,stanley,54.868,-1.6985,12.77,85,75,4.63,GB,1710434439
134,salahonda,2.1019,-78.7217,27.48,82,78,3.93,CO,1710434439
135,qaqortoq,60.7167,-46.0333,-1.42,75,18,2.38,GL,1710434439
136,alofi,-19.0595,-169.9187,23.94,94,100,1.54,NU,1710434439
137,cockburn town,21.4612,-71.1419,25.15,81,44,7.96,TC,1710434146
138,hauterive,46.0901,3.4459,20.42,69,100,2.31,FR,1710434439
139,pacasmayo,-7.4006,-79.5714,26.33,68,71,5.15,PE,1710434439
140,altai,46.3722,96.2583,-5.21,85,100,1.84,MN,1710434439
141,bathsheba,13.2167,-59.5167,29.34,74,75,8.75,BB,1710434439
142,petropavlovsk-kamchatsky,53.0452,158.6483,0.33,86,100,22.35,RU,1710434439
143,bonthe,7.5264,-12.505,29.64,67,59,6.32,SL,1710434439
144,puerto santa,-8.9906,-78.6456,25.23,73,28,4.05,PE,1710434440
145,cono norte,-16.3166,-71.5829,20.03,46,20,5.14,PE,1710434440
146,ciudad melchor muzquiz,27.8833,-101.5167,30.83,8,44,2.91,MX,1710434440
147,shengli,37.4564,118.4856,11.63,39,0,3.54,CN,1710434440
148,aasiaat,68.7098,-52.8699,-14.92,90,100,0.35,GL,1710434440
149,puerto ayora,-0.7393,-90.3518,28.98,92,57,3.58,EC,1710434440
150,vidyayevo,69.3191,32.8049,-3.56,97,100,2.07,RU,1710434440
151,port mathurin,-19.6833,63.4167,26.63,80,1,9.95,MU,1710434440
152,whitehorse,60.7161,-135.0538,0.43,86,40,9.77,CA,1710434159
153,pirapora,-17.345,-44.9419,31.57,54,55,1.44,BR,1710434345
154,kingston,17.997,-76.7936,30.53,62,20,5.14,JM,1710434435
155,luocheng,29.3848,104.0286,15.5,62,81,0.58,CN,1710434441
156,algeciras,36.1333,-5.4505,21.82,56,20,3.6,ES,1710434164
157,delta del tigre,-34.7633,-56.3853,22.23,88,75,5.66,UY,1710434298
158,dengi,9.3667,9.95,37.28,19,95,0.35,NG,1710434441
159,ormond-by-the-sea,29.3491,-81.0665,26.15,50,0,2.57,US,1710434441
160,moose jaw,50.4001,-105.5344,0.15,86,75,2.57,CA,1710434442
161,fomboni,-12.28,43.7425,28.91,76,10,5.2,KM,1710434443
162,inhambane,-23.865,35.3833,25.87,85,78,4.87,MZ,1710434443
163,vilyuchinsk,52.9306,158.4028,1.15,93,100,1.91,RU,1710434443
164,vilyuysk,63.7553,121.6247,-27.78,100,99,0.89,RU,1710434443
165,socorro,31.6546,-106.3033,17.16,36,0,2.57,US,1710434444
166,belokurikha,51.9959,84.9896,-8.82,95,100,1.6,RU,1710434444
167,el granada,37.5027,-122.4694,16.03,39,0,8.75,US,1710434444
168,fort irwin,35.2627,-116.6848,9.9,25,0,10.29,US,1710434444
169,tazacorte,28.629,-17.9293,21.54,76,40,3.09,ES,1710434444
170,nyurba,63.2842,118.3319,-29.15,100,87,1.66,RU,1710434445
171,plastun,44.7561,136.2939,-2.77,79,25,2.15,RU,1710434445
172,bilibino,68.0546,166.4372,-19.08,95,100,1.57,RU,1710434445
173,olyokminsk,60.3736,120.4264,-11.59,91,100,3.61,RU,1710434445
174,plymouth,41.8334,-70.8328,16.72,61,0,1.54,US,1710434445
175,santa elena de uairen,4.6167,-61.1333,32.94,31,19,3.92,VE,1710434445
176,balogo,10.8868,124.7105,23.84,90,73,2.62,PH,1710434445
177,la gi,10.6667,107.7833,25.7,82,100,5.44,VN,1710434445
178,conduaga,8.862,117.4893,24.55,73,98,1.95,PH,1710434445
179,abeche,13.8292,20.8324,34.95,8,100,4.32,TD,1710434446
180,isafjordur,66.0755,-23.124,-1.98,64,75,7.72,IS,1710434446
181,la palma,33.8464,-118.0467,18.57,26,40,5.36,US,1710434446
182,lihue,21.9789,-159.3672,21.58,86,0,6.17,US,1710434402
183,vila velha,-20.3297,-40.2925,30.97,81,20,5.66,BR,1710434446
184,ringkobing,56.0901,8.244,9.45,96,100,7.69,DK,1710434446
185,flying fish cove,-10.4217,105.6791,25.82,83,75,3.6,CX,1710434446
186,polva,58.0603,27.0694,6.12,81,99,5.41,EE,1710434446
187,ciudad rodrigo,40.6,-6.5333,14.87,77,76,3.44,ES,1710434446
188,nechi,8.0942,-74.7757,35.29,51,89,1.01,CO,1710434446
189,sitka,57.0531,-135.33,6.94,76,75,5.14,US,1710434446
190,balakovo,52.0278,47.8007,-7.23,97,28,1.97,RU,1710434446
191,cidreira,-30.1811,-50.2056,28.01,66,19,4.14,BR,1710434283
192,ar ruways,24.1103,52.7306,22.37,72,2,4.2,AE,1710434446
193,cabo san lucas,22.8909,-109.9124,25.34,48,100,4.12,MX,1710434306
194,mariestad,58.7097,13.8237,8.61,91,100,4.78,SE,1710434167
195,al jawf,29.5,38.75,20.78,17,74,3.58,SA,1710434446
196,ngama,11.7833,17.1667,36.22,6,95,2.86,TD,1710434446
197,saint-joseph,-21.3667,55.6167,26.21,84,82,4.82,RE,1710434447
198,'ain el turk,35.7438,-0.7693,22.5,60,0,4.12,DZ,1710434447
199,moranbah,-22.0016,148.0466,23.27,83,29,5.38,AU,1710434447
200,eno,62.8051,30.1542,3.16,98,100,6.8,FI,1710434447
201,fortuna,40.5982,-124.1573,12.19,97,100,2.57,US,1710434447
202,sao jose da coroa grande,-8.8978,-35.1478,29.26,74,87,4.7,BR,1710434447
203,bandarbeyla,9.4942,50.8122,27.2,66,2,4.75,SO,1710434447
204,palapag,12.5458,125.1147,24.17,88,100,3.1,PH,1710434447
205,chibougamau,49.9168,-74.3659,0.79,75,75,2.57,CA,1710434447
206,manokwari,-0.8667,134.0833,25.96,83,100,3.24,ID,1710434447
207,soio,-6.1349,12.3689,28.91,78,18,5.17,AO,1710434447
208,nar'yan-mar,67.6713,53.087,-14.38,96,71,3.13,RU,1710434447
209,taoudenni,22.6783,-3.9836,34.39,7,0,5.31,ML,1710434447
210,argostolion,38.1811,20.489,16.04,52,20,4.63,GR,1710434447
211,port elizabeth,-33.918,25.5701,22.16,70,0,3.6,ZA,1710434357
212,east london,-33.0153,27.9116,21.52,78,20,2.57,ZA,1710434248
213,ust-nera,64.5667,143.2,-30.55,100,59,1.49,RU,1710434448
214,mildura,-34.2,142.15,18.37,68,42,5.92,AU,1710434448
215,port-vila,-17.7338,168.3219,24.78,100,75,1.03,VU,1710434448
216,sao tome,0.3365,6.7273,26.27,81,100,6.56,ST,1710434448
217,chonchi,-42.6128,-73.8092,16.18,55,61,2.54,CL,1710434448
218,richards bay,-28.783,32.0377,20.92,84,100,4.39,ZA,1710434448
219,kailua-kona,19.6406,-155.9956,21.98,80,0,2.57,US,1710434263
220,capitan bado,-23.2667,-55.5333,39.51,25,15,4.03,PY,1710434448
221,gounou gaya,9.6294,15.5132,38.19,10,99,1.75,TD,1710434448
222,atlantic city,39.3643,-74.4229,24.54,52,0,2.57,US,1710434448
223,luderitz,-26.6481,15.1594,19.15,69,5,8.02,NA,1710434448
224,sarangani,5.4033,125.4636,27.34,83,100,9.38,PH,1710434448
225,ulldecona,40.5973,0.4472,21.15,65,27,2.21,ES,1710434241
226,gaspe,48.8334,-64.4819,2.12,75,75,5.66,CA,1710434448
227,ulanhot,46.0833,122.0833,1.46,54,73,6.36,CN,1710434448
228,puerto deseado,-47.7503,-65.8938,15.71,31,3,9.97,AR,1710434448
229,arvayheer,46.2639,102.775,-4.97,76,88,2.03,MN,1710434448
230,new norfolk,-42.7826,147.0587,9.72,95,1,1.04,AU,1710434449
231,adamovka,51.5223,59.9396,-7.21,93,80,6.37,RU,1710434449
232,genhe,50.7833,121.5167,-7.35,87,81,3.87,CN,1710434449
233,lebu,-37.6167,-73.65,16.03,61,1,6.86,CL,1710434449
234,puerto carreno,6.189,-67.4859,34.99,46,39,4.12,CO,1710434449
235,nazarovo,56.0064,90.3914,-8.54,91,78,3.58,RU,1710434449
236,arraial do cabo,-22.9661,-42.0278,28.98,65,0,8.75,BR,1710434260
237,northam,51.0333,-4.2167,12.99,96,100,8.03,GB,1710434449
238,torghay,49.6339,63.4981,-10.65,94,52,4.31,KZ,1710434449
239,labrador city,52.9463,-66.9114,-1.05,86,100,0.0,CA,1710434449
240,hasaki,35.7333,140.8333,6.22,53,1,5.43,JP,1710434449
241,terbanggi besar,-4.8667,105.2333,25.03,86,100,0.7,ID,1710434449
242,amga,60.8953,131.9608,-29.61,100,94,0.6,RU,1710434449
243,alaghsas,17.0187,8.0168,40.94,6,0,5.14,NE,1710434449
244,abqaiq,25.9371,49.6776,24.3,29,99,3.62,SA,1710434449
245,grand gaube,-20.0064,57.6608,27.43,77,38,2.24,MU,1710434449
246,beloyarskiy,63.7119,66.6722,-12.85,98,100,2.12,RU,1710434449
247,selfoss,63.9331,-20.9971,0.58,60,100,5.36,IS,1710434450
248,lira,2.235,32.9097,30.83,24,74,3.85,UG,1710434450
249,gamba,-2.65,10.0,27.8,81,62,4.24,GA,1710434450
250,gambela,8.25,34.5833,32.63,31,35,1.02,ET,1710434450
251,muisne,0.6,-80.0333,28.34,76,69,3.99,EC,1710434450
252,malpica,43.3228,-8.8105,17.09,53,97,6.17,ES,1710434450
253,kununurra,-15.7667,128.7333,27.99,89,99,1.03,AU,1710434162
254,merizo village,13.2658,144.6691,26.31,83,100,7.8,GU,1710434450
255,malvan,16.0667,73.4667,24.98,72,0,6.07,IN,1710434450
256,udachny,66.4167,112.4,-31.58,98,73,2.06,RU,1710434450
257,crane,31.3974,-102.3501,21.4,20,0,2.33,US,1710434450
258,essaouira,31.5125,-9.77,21.72,64,20,5.14,MA,1710434450
259,happy valley-goose bay,53.3168,-60.3315,1.17,69,75,0.0,CA,1710434450
260,hailey,43.5196,-114.3153,1.0,54,0,6.26,US,1710434450
261,wangdue phodrang,27.4862,89.8991,11.62,55,6,0.42,BT,1710434450
262,port saint john's,-31.6229,29.5448,20.35,80,25,0.9,ZA,1710434450
263,mabaruma,8.2,-59.7833,31.71,53,62,4.34,GY,1710434450
264,armacao de buzios,-22.7469,-41.8817,31.03,73,7,4.42,BR,1710434451
265,kerikeri,-35.2268,173.9474,16.04,95,34,2.87,NZ,1710434451
266,naples park,26.2617,-81.8093,29.99,65,0,2.57,US,1710434451
267,guarapari,-20.6667,-40.4975,29.38,75,27,3.75,BR,1710434451
268,bodaybo,57.8506,114.1933,-17.76,99,100,0.83,RU,1710434451
269,sur,22.5667,59.5289,23.99,58,20,0.43,OM,1710434451
270,freeport,40.6576,-73.5832,21.34,56,0,2.68,US,1710434451
271,clear lake,43.138,-93.3794,10.93,69,100,5.14,US,1710434382
272,papatowai,-46.5619,169.4708,7.52,88,100,5.74,NZ,1710434451
273,conception bay south,47.4999,-52.9981,2.25,89,87,6.61,CA,1710434338
274,sogndal,61.2283,7.1003,7.21,70,75,7.72,NO,1710434452
275,camacupa,-12.0167,17.4833,20.59,85,97,0.6,AO,1710434452
276,bintulu,3.1667,113.0333,26.23,94,20,0.0,MY,1710434452
277,ketchikan,55.3422,-131.6461,8.26,93,100,6.69,US,1710434452
278,mawlamyinegyunn,16.3833,95.2667,23.96,79,8,4.28,MM,1710434452
279,horta,38.5333,-28.6333,17.8,89,40,9.39,PT,1710434452
280,mar del plata,-38.0023,-57.5575,27.01,51,0,6.69,AR,1710433864
281,tamanrasset,22.785,5.5228,27.95,7,0,8.23,DZ,1710434452
282,dakhla,23.6848,-15.958,21.01,78,0,8.23,EH,1710434452
283,nurota,40.5614,65.6886,-1.9,74,4,5.45,UZ,1710434452
284,tara,56.8944,74.371,-10.51,97,100,2.57,RU,1710434452
285,obo,5.3998,26.4869,32.84,25,85,2.59,CF,1710434452
286,papao,-17.75,-149.55,26.82,76,97,4.58,PF,1710434452
287,saldanha,-33.0117,17.9442,24.03,80,61,6.47,ZA,1710434452
288,geraldton,-28.7667,114.6,22.23,88,0,3.6,AU,1710434223
289,houghton,47.1219,-88.569,4.86,77,75,4.12,US,1710434415
290,grand-bassam,5.2118,-3.7388,29.98,75,56,5.24,CI,1710434452
291,presidente epitacio,-21.7633,-52.1156,38.74,28,89,1.49,BR,1710434404
292,viedma,-40.8135,-62.9967,22.65,22,0,5.19,AR,1710434245
293,kourou,5.1552,-52.6478,32.03,61,25,3.81,GF,1710434452
294,sinan,34.8262,126.1086,3.06,73,0,1.16,KR,1710434452
295,hamar,60.7945,11.068,4.9,74,41,4.09,NO,1710434453
296,dongobesh,-4.0667,35.3833,15.01,94,84,1.04,TZ,1710434453
297,brooks,50.5834,-111.8851,-1.21,62,28,2.72,CA,1710433869
298,tralee,52.2704,-9.7026,14.14,82,75,3.6,IE,1710434453
299,sault ste. marie,46.5168,-84.3333,7.16,71,0,4.12,CA,1710434386
300,coxim,-18.5067,-54.76,37.41,36,82,0.97,BR,1710434453
301,san rafael del sur,11.8485,-86.4384,30.54,44,18,6.42,NI,1710434453
302,horsham,51.064,-0.3272,13.81,75,40,5.66,GB,1710434453
303,fale old settlement,-9.3852,-171.2468,28.96,76,13,4.07,TK,1710434453
304,santa rosa,14.3122,121.1114,27.28,80,56,3.69,PH,1710434287
305,kaliua,-5.0606,31.7936,20.1,89,99,0.97,TZ,1710434453
306,uturoa,-16.7333,-151.4333,28.32,77,91,4.12,PF,1710434453
307,solleftea,63.1667,17.2667,8.92,84,16,3.89,SE,1710434453
308,starotitarovskaya,45.2136,37.1439,10.27,92,100,2.77,RU,1710434453
309,kutum,14.2,24.6667,30.88,12,100,2.78,SD,1710434453
310,mayya,61.7333,130.2811,-23.38,100,98,0.5,RU,1710434453
311,boa vista,2.8197,-60.6733,33.99,43,40,3.6,BR,1710434383
312,civitavecchia,42.0933,11.7967,16.8,83,96,2.07,IT,1710434224
313,katol,21.2667,78.5833,26.35,18,0,1.88,IN,1710434454
314,prince rupert,54.3161,-130.3201,8.05,93,100,15.95,CA,1710434245
315,sao vicente,-23.9631,-46.3919,36.82,63,100,2.24,BR,1710434289
316,khandyga,62.6667,135.6,-28.91,100,97,0.29,RU,1710434454
317,rio grande,-32.035,-52.0986,33.06,53,6,4.54,BR,1710434454
318,fort st. john,56.2499,-120.8529,3.94,65,75,6.17,CA,1710434191
319,vernon,50.2581,-119.2691,7.91,69,33,3.09,CA,1710434454
320,nova sintra,14.8667,-24.7167,20.45,70,0,6.85,CV,1710434454
321,huangshan,29.7114,118.3125,11.24,93,93,0.57,CN,1710434454
322,kani keli,-12.9536,45.1033,28.59,75,53,4.85,YT,1710434454
323,holualoa,19.6228,-155.9522,19.91,80,0,2.57,US,1710434250
324,mount isa,-20.7333,139.5,20.87,73,22,0.0,AU,1710434155
325,ola,59.5833,151.2833,-7.55,80,100,6.63,RU,1710434454
326,villa dolores,-31.9459,-65.1896,30.58,54,97,1.6,AR,1710434454
327,mumford,5.2618,-0.759,28.91,80,86,7.53,GH,1710434454
328,tres arroyos,-38.3739,-60.2798,25.9,32,0,4.36,AR,1710434454
329,jamiltepec,16.2833,-97.8167,32.83,25,77,2.6,MX,1710434454
330,touros,-5.1989,-35.4608,31.3,64,97,5.39,BR,1710434454
331,lompoc,34.6391,-120.4579,15.0,57,20,4.12,US,1710434401
332,dhandhuka,22.3667,71.9833,26.31,33,0,3.66,IN,1710434455
333,lockwood,45.8191,-108.4149,3.48,74,100,1.54,US,1710434243
334,portland,45.5234,-122.6762,7.58,87,40,0.89,US,1710434010
335,byron bay,-28.65,153.6167,19.28,89,4,1.64,AU,1710434455
336,kudat,6.8837,116.8477,26.96,83,93,2.24,MY,1710434455
337,danilov,58.1908,40.1717,-1.75,90,100,3.99,RU,1710434455
338,santa vitoria do palmar,-33.5189,-53.3681,33.06,41,100,2.03,BR,1710434455
339,keningau,5.3378,116.1602,21.97,99,95,0.84,MY,1710434455
340,susanville,40.4163,-120.653,3.23,51,0,6.26,US,1710434455
341,abepura,-2.6333,140.5833,24.45,100,40,1.03,ID,1710434455
342,djibouti,11.5,42.5,23.92,75,17,7.43,DJ,1710434455
343,chernyshevsk,52.5243,117.0174,-15.42,89,3,1.6,RU,1710434455
344,galle,6.0367,80.217,26.8,75,52,1.21,LK,1710434455
345,robore,-18.3333,-59.75,33.05,55,40,5.14,BO,1710434455
346,aswan,24.0934,32.907,32.61,7,0,3.09,EG,1710434455
347,humaita,-7.5061,-63.0208,35.1,48,76,1.39,BR,1710434237
348,morehead city,34.7229,-76.726,27.0,66,0,4.12,US,1710434455
349,margate,51.3813,1.3862,13.95,74,89,0.45,GB,1710434289
350,igarka,67.4667,86.5833,-25.83,100,82,2.59,RU,1710434456
351,penzance,50.1186,-5.5371,12.38,100,75,8.75,GB,1710434456
352,vung tau,10.346,107.0843,26.69,76,100,7.2,VN,1710434456
353,sao joao dos inhamuns,-6.0,-40.2833,31.89,51,95,4.23,BR,1710434456
354,la'ie,21.6477,-157.9253,20.98,92,84,1.79,US,1710434456
355,greenville,35.6127,-77.3663,26.19,30,0,2.68,US,1710434322
356,ratnagiri,16.9833,73.3,23.87,76,0,5.02,IN,1710434456
357,sisimiut,66.9395,-53.6735,-9.82,86,97,0.99,GL,1710434456
358,codrington,-38.2667,141.9667,13.5,74,14,5.82,AU,1710434456
359,durango,24.8333,-104.8333,19.51,20,100,6.97,MX,1710434367
360,elmina,5.0898,-1.348,29.38,78,86,7.6,GH,1710434456
361,dhidhdhoo,6.8833,73.1,28.75,69,56,3.3,MV,1710434456
362,belmonte,-15.8631,-38.8828,29.95,67,52,4.18,BR,1710434456
363,antofagasta,-23.65,-70.4,20.6,67,74,4.48,CL,1710434219
364,haiku-pauwela,20.9219,-156.3051,20.58,92,100,3.09,US,1710434456
365,shenjiamen,29.9576,122.298,10.66,88,100,2.85,CN,1710434456
366,zhangjiakou,40.81,114.8794,7.29,29,0,1.5,CN,1710434326
367,vanimo,-2.6741,141.3028,25.63,91,100,3.74,PG,1710434456
368,natal,-5.795,-35.2094,32.36,66,40,5.66,BR,1710433819
369,kargil,34.5667,76.1,-17.59,83,18,2.15,IN,1710434456
370,bel ombre,-4.6167,55.4167,27.91,83,20,0.0,SC,1710434457
371,utrik,11.2278,169.8474,26.38,75,100,8.39,MH,1710434457
372,hadibu,12.65,54.0333,26.25,74,1,3.86,YE,1710434457
373,tutoia,-2.7619,-42.2744,30.16,69,96,4.93,BR,1710434457
374,longyearbyen,78.2186,15.6401,-21.09,49,20,4.63,SJ,1710434457
375,chimoio,-19.1164,33.4833,31.92,51,75,3.55,MZ,1710434457
376,sajir,25.1825,44.5996,24.97,43,100,7.27,SA,1710434457
377,hammerfest,70.6634,23.6821,-4.75,93,100,3.6,NO,1710434457
378,nikolayevsk-on-amure,53.1406,140.73,-18.24,100,97,1.85,RU,1710434457
379,paita,-5.0892,-81.1144,27.4,64,46,4.83,PE,1710434457
380,nakonde,-9.3421,32.745,16.8,96,86,2.19,ZM,1710434457
381,kilju,40.9642,129.3278,4.89,50,82,1.35,KP,1710434457
382,tingo maria,-9.2895,-76.0088,30.17,66,40,1.54,PE,1710434457
383,cudahy,33.9606,-118.1853,18.41,36,0,5.66,US,1710434457
384,trinidad,-14.8333,-64.9,32.99,70,40,4.63,BO,1710434310
385,taro,-8.3862,115.28,24.0,97,100,1.93,ID,1710434458
386,santa marta,11.2408,-74.199,35.03,46,20,2.57,CO,1710434180
387,ascension,30.2169,-90.9001,26.15,85,100,4.12,US,1710434358
388,guiren,33.6697,118.1889,6.34,90,0,2.56,CN,1710434458
389,kalengwa,-13.4659,25.0027,19.02,95,94,2.52,ZM,1710434458
390,sakaiminato,35.55,133.2333,5.96,87,20,2.57,JP,1710434458
391,ugoofaaru,5.6667,73.0,28.46,71,47,2.72,MV,1710434458
392,pinckneyville,38.0803,-89.382,22.27,83,97,8.17,US,1710434262
393,bulanik,39.0929,42.2703,1.96,77,80,0.99,TR,1710434458
394,smithers,54.7804,-127.1743,4.18,75,75,6.17,CA,1710434361
395,santo tome,-31.6627,-60.7653,28.9,80,84,4.92,AR,1710434352
396,kalulushi,-12.8378,28.0919,18.73,95,95,0.88,ZM,1710434458
397,liegi,50.6337,5.5675,18.08,51,0,4.12,BE,1710434458
398,monrovia,6.3005,-10.7969,32.87,74,72,4.97,LR,1710434453
399,remontnoye,46.5614,43.6501,2.67,63,100,8.54,RU,1710434458
400,ndibene dahra,15.3338,-15.4766,40.99,6,2,2.83,SN,1710434458
401,ilha de mocambique,-15.0342,40.7358,29.02,77,2,4.77,MZ,1710434458
402,fortaleza,-3.7227,-38.5247,32.26,87,75,5.14,BR,1710434353
403,elhovo,42.1667,26.5667,10.23,97,99,5.08,BG,1710434459
404,geidam,12.897,11.9304,37.54,8,96,5.73,NG,1710434459
405,santo antonio do ica,-3.1022,-67.9397,26.91,90,96,1.76,BR,1710434459
406,tibanbang,6.6315,126.1055,25.96,83,97,3.8,PH,1710434459
407,mansa,29.9833,75.3833,18.01,33,0,3.82,IN,1710434459
408,kuusamo,65.9667,29.1833,1.02,93,100,6.69,FI,1710434459
409,jaisinghnagar,23.7,81.3833,23.7,20,0,1.13,IN,1710434459
410,songea,-10.6833,35.65,19.78,90,97,1.11,TZ,1710434459
411,marshall,34.3834,-86.3333,25.01,59,0,4.12,US,1710434459
412,sagna,46.9833,27.0167,5.24,75,100,2.65,RO,1710434459
413,murzuq,25.9155,13.9184,24.74,14,99,6.59,LY,1710434459
414,rio gallegos,-51.6226,-69.2181,9.03,43,0,7.72,AR,1710434286
415,filadelfia,39.9523,-75.1638,24.27,37,40,1.54,US,1710434238
416,bluefields,12.0137,-83.7635,30.04,84,75,2.06,NI,1710434197
417,mount pearl,47.5166,-52.7813,1.92,90,100,8.23,CA,1710434351
418,cova figueira,14.8905,-24.2934,21.25,66,0,6.65,CV,1710434460
419,yuzhno-kurilsk,44.0306,145.8556,-3.68,78,67,2.5,RU,1710434460
420,weno,7.4515,151.8468,27.97,89,100,1.54,FM,1710434460
421,coracora,-15.0333,-73.7833,20.46,49,97,3.36,PE,1710434460
422,harper,4.375,-7.7169,29.61,73,92,3.87,LR,1710434460
423,tweed heads,-28.1817,153.547,20.56,97,10,0.0,AU,1710434460
424,valle hermoso,25.6667,-97.8333,25.92,57,22,9.77,MX,1710434460
425,cam ranh,11.9214,109.1591,23.98,94,0,1.03,VN,1710434460
426,litchfield,41.7668,-73.2501,18.29,36,82,2.68,US,1710434244
427,kristiansund,63.1115,7.732,6.36,70,75,13.89,NO,1710434460
428,anton lizardo,19.05,-95.9833,29.56,77,100,3.19,MX,1710434460
429,utete,-7.986,38.758,25.03,95,99,2.23,TZ,1710434460
430,pitimbu,-7.4706,-34.8086,29.33,73,79,5.28,BR,1710434461
431,aripuana,-9.1667,-60.6333,36.35,41,21,1.36,BR,1710434434
432,hirara,24.8,125.2833,16.15,82,20,2.57,JP,1710434461
433,hithadhoo,-0.6,73.0833,28.41,74,9,4.61,MV,1710434461
434,sauk rapids,45.5919,-94.1661,10.75,53,0,5.14,US,1710434338
435,mirnyy,62.5353,113.9611,-26.23,100,79,1.76,RU,1710434461
436,gadzhiyevo,69.2551,33.3362,-2.98,96,100,4.37,RU,1710434461
437,jinghong,21.991,100.7341,20.1,38,0,1.7,CN,1710434461
438,sao joao da barra,-21.6403,-41.0511,31.05,75,50,3.81,BR,1710434462
439,bismarck,46.8083,-100.7837,2.91,91,100,7.72,US,1710434400
440,nagqu,31.5,92.0,-2.47,16,79,6.78,CN,1710434462
441,assab,13.0092,42.7394,27.85,64,87,11.73,ER,1710434462
442,lionel town,17.8101,-77.2406,30.94,52,64,5.54,JM,1710434462
443,buba,11.5833,-15.0,41.95,12,29,0.15,GW,1710434462
444,san patricio,28.017,-97.5169,25.97,64,72,10.12,US,1710434462
445,shangqiu,34.45,115.65,8.11,84,0,3.89,CN,1710434357
446,lillehammer,61.1146,10.4674,4.19,78,17,3.69,NO,1710434462
447,selkirk,50.1436,-96.8845,2.26,88,100,0.45,CA,1710434462
448,shalkar,47.8288,59.6258,-3.93,87,8,2.33,KZ,1710434462
449,san pedro pochutla,15.7333,-96.4667,30.84,37,83,4.24,MX,1710434462
450,muromtsevo,56.3724,75.2418,-10.52,97,100,2.62,RU,1710434462
451,xiva,41.3783,60.3639,0.99,32,9,7.15,UZ,1710434463
452,kayyerkan,69.3786,87.7439,-17.06,84,98,6.79,RU,1710434463
453,namibe,-15.1961,12.1522,24.14,76,34,3.65,AO,1710434463
454,satsuma,30.8532,-88.0561,24.61,65,50,3.49,US,1710434463
455,akureyri,65.6835,-18.0878,-3.04,68,75,5.66,IS,1710434463
456,zaozersk,69.4005,32.4476,-4.11,97,100,1.77,RU,1710434463
457,hailar,49.2,119.7,-8.31,76,44,5.62,CN,1710434463
458,leskovac,42.9981,21.9461,8.77,85,100,1.11,RS,1710434463
459,pangody,65.85,74.4859,-24.08,96,49,3.32,RU,1710434463
460,serdar,38.9764,56.2757,9.8,43,81,13.55,TM,1710434463
461,morant bay,17.8815,-76.4093,30.79,67,50,5.31,JM,1710434463
462,aykhal,66.0,111.5,-29.59,100,61,2.6,RU,1710434463
463,gazojak,41.1875,61.4036,3.51,35,2,7.3,TM,1710434463
464,nemuro,43.3236,145.575,-2.63,73,57,3.51,JP,1710434464
465,bratsk,56.1325,101.6142,-7.03,96,96,1.14,RU,1710434464
466,avon,41.4517,-82.0354,15.92,86,100,3.09,US,1710433922
467,beni,0.5,29.4667,23.78,47,87,1.21,CD,1710434464
468,palmer,42.1584,-72.3287,18.8,47,40,1.79,US,1710434438
469,simanggang,1.2472,111.4528,25.01,94,100,0.0,MY,1710434464
470,kalmunai,7.4167,81.8167,26.26,78,6,2.41,LK,1710434464
471,siwa oasis,29.2041,25.5195,21.0,18,1,4.23,EG,1710434464
472,kawambwa,-9.7915,29.0791,19.56,92,78,0.56,ZM,1710434464
473,yamada,39.4667,141.95,2.74,76,10,2.39,JP,1710434464
474,ontario,34.0633,-117.6509,16.38,24,40,10.29,US,1710434186
475,nabire,-3.3667,135.4833,24.92,92,100,0.99,ID,1710434464
476,constantia,44.1833,28.65,5.39,93,100,4.92,RO,1710434405
477,sinabang,2.4803,96.3801,27.23,78,95,1.87,ID,1710434464
478,itoman,26.1247,127.6694,19.43,66,40,2.57,JP,1710434464
479,shaowu,27.3409,117.4831,11.56,97,92,0.9,CN,1710434465
480,ghat,24.9647,10.1728,27.47,9,41,4.98,LY,1710434465
481,al ghayzah,16.2079,52.176,25.87,74,0,4.45,YE,1710434465
482,la passe,45.5549,-0.8967,19.13,75,47,1.85,FR,1710434465
483,chernomorskoye,45.5039,32.6997,8.0,94,43,1.82,UA,1710434465
484,olinda,-8.0089,-34.8553,28.85,84,75,4.63,BR,1710434465
485,sechura,-5.5569,-80.8222,29.51,53,59,3.69,PE,1710434465
486,nova vicosa,-17.8919,-39.3719,28.29,69,74,3.52,BR,1710434465
487,altamira,-3.2033,-52.2064,31.05,70,75,3.09,BR,1710434396
488,mingshui,36.7167,117.5,11.84,44,0,4.11,CN,1710434465
489,lamu,-2.2717,40.902,29.1,73,96,7.39,KE,1710434465
490,ilhabela,-23.7781,-45.3581,27.58,78,25,2.45,BR,1710434259
491,naha,26.2125,127.6811,19.38,67,40,2.57,JP,1710434253
492,camiri,-20.05,-63.5167,32.88,49,4,0.0,BO,1710434465
493,kindu,-2.95,25.95,24.68,78,71,1.3,CD,1710434466
494,colonia,50.9333,6.95,18.27,58,0,5.66,DE,1710434209
495,riviere-du-loup,47.8304,-69.5342,3.15,75,100,2.06,CA,1710434466
496,emerald,-23.5333,148.1667,24.63,71,0,2.91,AU,1710434310
497,branesti,45.0333,25.4167,6.31,94,100,2.9,RO,1710434466
498,neosho,36.869,-94.368,23.23,78,100,7.38,US,1710434450
499,tynda,55.1667,124.7167,-9.55,96,100,0.85,RU,1710434466
500,walvis bay,-22.9575,14.5053,18.94,67,2,7.84,NA,1710434466
501,gaiman,-43.2897,-65.4929,21.21,21,0,10.14,AR,1710434466
502,salym,60.0625,71.4789,-20.23,98,67,1.3,RU,1710434466
503,imbituba,-28.24,-48.6703,27.14,60,0,5.81,BR,1710434466
504,bernay,49.1667,0.6667,17.26,64,63,3.13,FR,1710434466
505,shenkursk,62.1091,42.896,1.0,98,100,5.31,RU,1710434466
506,east ballina,-28.8667,153.5833,19.33,88,3,1.87,AU,1710434293
507,rock springs,41.5875,-109.2029,0.58,87,100,15.43,US,1710434450
508,berriane,32.8265,3.7669,25.47,16,28,5.53,DZ,1710434466
509,tadine,-21.55,167.8833,25.52,87,100,4.31,NC,1710434467
510,calvinia,-31.4707,19.776,23.29,24,60,3.16,ZA,1710434467
511,butembo,0.15,29.2833,19.29,62,66,1.45,CD,1710434467
512,naze,28.3667,129.4833,11.51,70,10,1.82,JP,1710434467
513,nguigmi,14.2495,13.1092,30.75,25,98,4.17,NE,1710434467
514,baiti,13.745,-14.7482,41.31,7,6,2.55,SN,1710434467
515,teguise,29.0605,-13.564,17.12,82,40,7.72,ES,1710434467
516,thunder bay,48.4001,-89.3168,3.95,60,20,3.09,CA,1710434423
517,ancud,-41.8697,-73.8203,14.16,60,71,3.21,CL,1710434467
518,chaparral,3.7232,-75.4832,27.04,66,99,1.62,CO,1710434467
519,jinan,36.6683,116.9972,13.12,53,0,4.66,CN,1710434467
520,ketrzyn,54.0768,21.3753,7.72,71,71,3.85,PL,1710434244
521,tan-tan,28.438,-11.1032,20.97,64,20,8.75,MA,1710434467
522,acapulco de juarez,16.8634,-99.8901,27.9,65,20,1.54,MX,1710434246
523,galvez,-32.0293,-61.221,31.23,59,94,3.01,AR,1710434239
524,howrah,22.5892,88.3103,28.0,83,40,4.12,IN,1710434185
525,huntsville,34.7304,-86.5861,24.11,60,20,7.2,US,1710434468
526,fada,9.5667,8.3,32.54,31,100,3.34,NG,1710434468
527,orosei,40.3798,9.6929,16.88,78,13,2.5,IT,1710434468
528,nalut,30.3333,10.85,22.34,19,84,4.29,LY,1710434468
529,tash-kumyr,41.3461,72.2171,2.62,69,66,3.13,KG,1710434468
530,trostyanets',50.4784,34.963,2.55,76,100,2.9,UA,1710434468
531,trincomalee,8.5711,81.2335,26.75,75,2,2.76,LK,1710434468
532,susuman,62.7833,148.1667,-22.79,99,100,1.79,RU,1710434468
533,santa ana,33.7456,-117.8678,18.15,22,40,9.83,US,1710434426
534,cirencester,51.7171,-1.9683,12.99,89,100,6.17,GB,1710434468
535,bereznik,62.8551,42.7072,1.06,98,100,4.94,RU,1710434468
536,ma'rib,15.4591,45.3253,28.98,22,8,7.93,YE,1710434468
537,korsakov,46.6328,142.7813,-14.09,91,27,2.38,RU,1710434468
538,sosnovka,56.255,51.2842,-1.41,89,100,4.9,RU,1710434468
539,lobujya,27.95,86.8167,-15.38,35,0,1.75,NP,1710434469
540,zyryanskoye,56.8306,86.6258,-8.22,89,100,5.17,RU,1710434469
541,karlovo,42.6333,24.8,10.67,90,99,2.48,BG,1710434469
542,maragogi,-9.0122,-35.2225,29.38,73,95,4.65,BR,1710434469
543,kloulklubed,7.0419,134.2556,27.28,79,94,8.59,PW,1710434469
544,tanout,14.9709,8.8879,37.34,9,50,4.61,NE,1710434469
545,pursat,12.3333,103.6667,25.88,81,97,1.51,KH,1710434469
546,mana,5.6592,-53.7767,30.48,62,44,4.91,GF,1710434469
547,shakhtars'k,48.0625,38.5167,5.07,72,100,6.96,UA,1710434469
548,owase,34.0667,136.2,7.38,79,11,2.24,JP,1710434452
549,salem,11.65,78.1667,28.7,37,26,3.27,IN,1710433784
550,lae,-6.7221,146.9847,25.72,88,85,2.88,PG,1710434469
551,antalaha,-14.9003,50.2788,26.05,84,97,3.3,MG,1710434469
552,male,4.1748,73.5089,28.97,79,20,0.51,MV,1710434258
553,chifeng,42.2683,118.9636,6.92,31,33,2.69,CN,1710434358
554,hawick,55.4227,-2.7867,11.11,98,100,3.34,GB,1710434470
555,dzhetygara,52.1908,61.2006,-6.43,90,72,7.44,KZ,1710434470
556,egilsstadir,65.2653,-14.3948,-3.05,80,75,5.14,IS,1710434470
557,chui,-33.6971,-53.4616,33.28,42,100,2.12,UY,1710434418
558,lancaster,40.2504,-76.2499,22.32,48,0,0.45,US,1710433857
559,kyelang,32.5833,77.0333,-17.33,96,57,2.65,IN,1710434470
560,hot springs,34.5037,-93.0552,22.4,88,100,2.57,US,1710434255
561,as sulayyil,20.4607,45.5779,31.14,26,0,4.48,SA,1710434470
562,waynesboro,38.0685,-78.8895,24.09,30,0,2.57,US,1710434444
563,hami,42.8,93.45,6.05,37,100,7.16,CN,1710434390
564,la ronge,55.1001,-105.2842,-9.86,92,100,2.57,CA,1710434470
565,turabah,21.2141,41.6331,27.76,32,66,8.74,SA,1710434470
566,mutuali,-14.8706,37.0044,22.85,92,100,0.89,MZ,1710434218
567,punta del este,-34.9667,-54.95,24.06,86,100,10.29,UY,1710434387
568,kapuskasing,49.4169,-82.4331,-2.95,86,100,4.63,CA,1710434394
569,scottburgh,-30.2867,30.7532,20.16,84,99,2.09,ZA,1710434470
570,yaring,6.8662,101.3689,25.76,83,72,3.88,TH,1710434470
571,talcahuano,-36.7167,-73.1167,19.82,49,0,6.69,CL,1710433884
572,mpongwe,-13.5091,28.155,19.61,94,93,2.02,ZM,1710434471
573,ljusdal,61.8288,16.0913,3.57,87,41,5.45,SE,1710434471
574,bilmak,47.3624,36.6511,4.13,79,100,6.93,UA,1710434471
575,winston,28.0317,-82.0148,28.18,63,0,2.57,US,1710434444
576,ta`u,-14.2336,-169.5144,28.08,79,86,2.81,AS,1710434471
577,taguatinga,-12.3857,-46.5711,31.9,55,58,1.94,BR,1710434471
578,ciudad lazaro cardenas,17.9583,-102.2,27.99,51,13,2.78,MX,1710434471
579,barrancabermeja,7.0653,-73.8547,33.18,62,40,2.57,CO,1710434471
580,minas de marcona,-15.2119,-75.1103,22.96,63,93,4.85,PE,1710434471
581,port douglas,-16.4833,145.4667,26.28,85,50,1.8,AU,1710434471
582,revda,56.801,59.9303,-2.6,94,100,4.68,RU,1710434471
583,san antonio de pale,-1.4014,5.6325,27.91,72,100,5.52,GQ,1710434471
584,siliana,36.085,9.3708,16.03,62,1,2.48,TN,1710434471
585,el calafate,-50.3408,-72.2768,4.99,93,100,3.31,AR,1710434314
